{"features":[{"geometry":{"coordinates":[-92.364803,34.649475],"type":"Point"},"id":"ci8m6ke2m001nhwm5pr80ajt6","properties":{"description":"11100 Chicot Rd, Little Rock, AR","id":"marker-i8m5uddb1","marker-color":"#000000","marker-size":"medium","marker-symbol":"","title":"Chicot"},"type":"Feature"},{"geometry":{"coordinates":[-92.383253,34.723514],"type":"Point"},"id":"ci8m6ke2o001ohwm5txec103i","properties":{"description":"3400 Romine Rd","id":"marker-i8m5yt9g2","marker-color":"#000000","marker-size":"medium","marker-symbol":"","title":"Romine"},"type":"Feature"},{"geometry":{"coordinates":[-92.356532,34.662698],"type":"Point"},"id":"ci8m6ke2p001phwm5t19o56kk","properties":{"description":"7000 Valley Dr, Little Rock, AR","id":"marker-i8m611kc3","marker-color":"#000000","marker-size":"medium","marker-symbol":"","title":"Watson"},"type":"Feature"},{"geometry":{"coordinates":[-92.317209,34.690824],"type":"Point"},"id":"ci8m7pj60000pk4m4i864ml6x","properties":{"description":"3700 W 65th St, Little Rock, AR 72209","id":"marker-i8m7lymh0","marker-color":"#c091e6","marker-size":"medium","marker-symbol":"","title":"Promiseland Community Developement Corporation"},"type":"Feature"},{"geometry":{"coordinates":[-92.350586,34.669595],"type":"Point"},"id":"ci8m7pj61000qk4m4vlvdj4fe","properties":{"description":"6520 Baseline Rd, Little Rock, AR 72209","id":"marker-i8m7naw11","marker-color":"#c091e6","marker-size":"medium","marker-symbol":"","title":"Quality After-School Programs"},"type":"Feature"},{"geometry":{"coordinates":[-92.428218,34.659049],"type":"Point"},"id":"ci8m7pj62000rk4m4vr0xsf5k","properties":{"description":"6 Otter Creek Ct, Little Rock, AR 72210","id":"marker-i8m7orn22","marker-color":"#c091e6","marker-size":"medium","marker-symbol":"","title":"Bright Ideas Enrichment Center"},"type":"Feature"},{"geometry":{"coordinates":[-92.342129,34.687453],"type":"Point"},"id":"ci8m8bwm4001vjxm4cu0ktmgt","properties":{"description":"6915 Geyer Springs Rd, Little Rock, AR 72209","id":"marker-i8m838av0","marker-color":"#c091e6","marker-size":"medium","marker-symbol":"","title":"Park Inc."},"type":"Feature"},{"geometry":{"coordinates":[-92.390202,34.736645],"type":"Point"},"id":"ci8m8bwm5001wjxm4wgeavpak","properties":{"description":"1900 Aldersgate Rd, Little Rock, AR 72205","id":"marker-i8m8494h1","marker-color":"#c091e6","marker-size":"medium","marker-symbol":"","title":"LearningRx - Little Rock"},"type":"Feature"},{"geometry":{"coordinates":[-92.391766,34.743212],"type":"Point"},"id":"ci8m8bwm7001xjxm4abbcpcqb","properties":{"description":"10700 Kanis Rd, Little Rock, AR 72211","id":"marker-i8m85aht2","marker-color":"#c091e6","marker-size":"medium","marker-symbol":"","title":"Childcare Network"},"type":"Feature"},{"geometry":{"coordinates":[-92.402045,34.744787],"type":"Point"},"id":"ci8m8bwm8001yjxm44xs520op","properties":{"description":"1015 Autumn Rd, Little Rock, AR 72211","id":"marker-i8m864573","marker-color":"#c091e6","marker-size":"medium","marker-symbol":"","title":"Adventureland Academy"},"type":"Feature"},{"geometry":{"coordinates":[-92.322595,34.688563],"type":"Point"},"id":"ci8m8bwma001zjxm4t5gc9g8t","properties":{"description":"4301 West 65TH Street, Little Rock, Arkansas 72209","id":"marker-i8m88zsv4","marker-color":"#f86767","marker-size":"medium","marker-symbol":"","title":"Arkansas Food Bank"},"type":"Feature"},{"geometry":{"coordinates":[-92.317813,34.689003],"type":"Point"},"id":"ci8m8bwmb0020jxm4ydwzpxrn","properties":{"description":"3801 W 65th St, Little Rock, AR 72209","id":"marker-i8m8ab4z5","marker-color":"#f86767","marker-size":"medium","marker-symbol":"","title":"Arkansas Rice Depot/Food For Kids"},"type":"Feature"},{"geometry":{"coordinates":[-92.351789,34.667586],"type":"Point"},"id":"ci8pd4vla00fpi3m33phublbh","properties":{"description":"6401 Baseline Rd, Little Rock, AR 72209 ","id":"marker-i8pa4cr90","marker-color":"#f1f075","marker-size":"medium","marker-symbol":"","title":"Southwest Community Center"},"type":"Feature"},{"geometry":{"coordinates":[-92.340659,34.675708],"type":"Point"},"id":"ci8pd4vlb00fqi3m315339ykq","properties":{"description":"5702 Dreher Ln, Little Rock, AR 72209","id":"marker-i8pa9nxa1","marker-color":"#1087bf","marker-size":"medium","marker-symbol":"","title":"Arkansas State Police Association,"},"type":"Feature"},{"geometry":{"coordinates":[-92.335796,34.682907],"type":"Point"},"id":"ci8pd4vlc00fri3m3f0j0i1p0","properties":{"description":"5304 Park Village Dr, Little Rock, AR 72209","id":"marker-i8paawya2","marker-color":"#1087bf","marker-size":"medium","marker-symbol":"","title":"Shining Light/Born Free Reading Series"},"type":"Feature"},{"geometry":{"coordinates":[-92.303866,34.690189],"type":"Point"},"id":"ci8pd4vld00fsi3m3wrkz4822","properties":{"description":"6200 Aerie St, Little Rock, AR 72209","id":"marker-i8pac2593","marker-color":"#1087bf","marker-size":"medium","marker-symbol":"","title":"Fraternal Order of the Eagles"},"type":"Feature"},{"geometry":{"coordinates":[-92.344827,34.640727],"type":"Point"},"id":"ci8pd4vle00fti3m3vixb7t1f","properties":{"description":"5816 Geyer Springs Cutoff\nLittle Rock, AR 72206","id":"marker-i8pah8d55","marker-color":"#1087bf","marker-size":"medium","marker-symbol":"","title":"Giving In Kindness In Arkansas"},"type":"Feature"},{"geometry":{"coordinates":[-92.269464,34.724059],"type":"Point"},"id":"ci8pd4vlf00fui3m34e3pz7ya","properties":{"description":"302 E Roosevelt Rd, Little Rock, AR 72206","id":"marker-i8paklyx6","marker-color":"#1087bf","marker-size":"medium","marker-symbol":"","title":"Our House Shelter"},"type":"Feature"},{"geometry":{"coordinates":[-92.349611,34.688017],"type":"Point"},"id":"ci8pd4vlg00fvi3m3cr0uysyu","properties":{"description":"6700 S University Ave, Little Rock, AR","id":"marker-i8palm987","marker-color":"#1087bf","marker-size":"medium","marker-symbol":"","title":"Habitat for Humanity"},"type":"Feature"},{"geometry":{"coordinates":[-92.387033,34.73059],"type":"Point"},"id":"ci8pd4vlh00fwi3m3pzlb3821","properties":{"description":"2701 Aldersgate Rd, Little Rock, AR 72205","id":"marker-i8pat0vy8","marker-color":"#1087bf","marker-size":"medium","marker-symbol":"","title":"Good Shepherd Community"},"type":"Feature"},{"geometry":{"coordinates":[-92.373075,34.73689],"type":"Point"},"id":"ci8pd4vlj00fxi3m39pud8lau","properties":{"description":"8800 Labette Dr, Little Rock, AR 72204","id":"marker-i8pau6td9","marker-color":"#1087bf","marker-size":"medium","marker-symbol":"","title":"Community Living Arrangement"},"type":"Feature"},{"geometry":{"coordinates":[-92.422534,34.744315],"type":"Point"},"id":"ci8pd4vlk00fyi3m3e4lamrrp","properties":{"description":"13310 Kanis Rd, Little Rock, AR 72211","id":"marker-i8pav4hua","marker-color":"#1087bf","marker-size":"medium","marker-symbol":"","title":"ICM"},"type":"Feature"},{"geometry":{"coordinates":[-92.392038,34.732142],"type":"Point"},"id":"ci8pd4vll00fzi3m3zwtfmnwr","properties":{"description":"2000 Aldersgate Rd., Little Rock, AR 72205","id":"marker-i8pbf8ptb","marker-color":"#1087bf","marker-size":"medium","marker-symbol":"","title":"Camp Aldersgate Inc."},"type":"Feature"},{"geometry":{"coordinates":[-92.406352,34.732467],"type":"Point"},"id":"ci8pd4vlm00g0i3m3065krvpa","properties":{"description":"2418 Forest Creek Dr., Little Rock, AR 72211","id":"marker-i8pbgi4zc","marker-color":"#1087bf","marker-size":"medium","marker-symbol":"","title":"City Connections Inc."},"type":"Feature"},{"geometry":{"coordinates":[-92.407688,34.733817],"type":"Point"},"id":"ci8pd4vln00g1i3m3te97qy4n","properties":{"description":"2200 S Bowman Rd., Little Rock, AR 72211","id":"marker-i8pbitb4d","marker-color":"#1087bf","marker-size":"medium","marker-symbol":"","title":"Hospice Home Care"},"type":"Feature"},{"geometry":{"coordinates":[-92.403312,34.745142],"type":"Point"},"id":"ci8pd4vlo00g2i3m380kv8ye2","properties":{"description":"1012 Autumn Rd # 1, Little Rock, AR 72211","id":"marker-i8pbk0w5e","marker-color":"#1087bf","marker-size":"medium","marker-symbol":"","title":"NAMI"},"type":"Feature"},{"geometry":{"coordinates":[-92.404742,34.755639],"type":"Point"},"id":"ci8pd4vlp00g3i3m3r1x7p3dm","properties":{"description":"109 Markham Park Dr., Little Rock, AR 72211","id":"marker-i8pblry7f","marker-color":"#1087bf","marker-size":"medium","marker-symbol":"","title":"Goodwill Store and Donation Center"},"type":"Feature"},{"geometry":{"coordinates":[-92.36955,34.753198],"type":"Point"},"id":"ci8pd4vlq00g4i3m38rtv2wya","properties":{"description":"8609 W Markham St Suite 1, Little Rock, AR 72205","id":"marker-i8pbnh02g","marker-color":"#1087bf","marker-size":"medium","marker-symbol":"","title":"My Favorite Thrift Store"},"type":"Feature"},{"geometry":{"coordinates":[-92.389611,34.755149],"type":"Point"},"id":"ci8pd4vlr00g5i3m3psiwsgdd","properties":{"description":"201 Markham Center Dr., Little Rock, AR 72205","id":"marker-i8pboeorh","marker-color":"#1087bf","marker-size":"medium","marker-symbol":"","title":"Alzheimer's Arkansas"},"type":"Feature"},{"geometry":{"coordinates":[-92.391751,34.764701],"type":"Point"},"id":"ci8pd4vls00g6i3m36d5rgpy1","properties":{"description":"10618 Breckenridge Dr., Little Rock, AR 72211","id":"marker-i8pbpnmki","marker-color":"#1087bf","marker-size":"medium","marker-symbol":"","title":"Access Schools"},"type":"Feature"},{"geometry":{"coordinates":[-92.330893,34.687613],"type":"Point"},"id":"ci8pd4vlt00g7i3m32ydsn6x4","properties":{"description":"46 Harrow Dr., Little Rock, AR 72209","id":"marker-i8pc05cdj","marker-color":"#f1f075","marker-size":"medium","marker-symbol":"","title":"Dalton Whetstone Boys & Girls Club"},"type":"Feature"},{"geometry":{"coordinates":[-92.349942,34.668865],"type":"Point"},"id":"ci8pd4vlv00g8i3m3f4u5rd08","properties":{"description":"6325 Baseline Rd, Little Rock, AR 72209","id":"marker-i8pcf6v2k","marker-color":"#f5c272","marker-size":"medium","marker-symbol":"","title":"Dee Brown Library"},"type":"Feature"},{"geometry":{"coordinates":[-92.375912,34.74684],"type":"Point"},"id":"ci8pd4vlw00g9i3m3ec8atlh4","properties":{"description":"9601 Interstate 630 Exit 7, Little Rock, AR 72205 ","id":"marker-i8pck6fzl","marker-color":"#f5c272","marker-size":"medium","marker-symbol":"","title":"Margaret Gilbreath Memorial Library"},"type":"Feature"},{"geometry":{"coordinates":[-92.372547,34.733799],"type":"Point"},"id":"ci8pd4vlx00gai3m3hfe7tv1x","properties":{"description":"2100 John Barrow Rd, Little Rock, AR 72204","id":"marker-i8pcl6ivm","marker-color":"#f5c272","marker-size":"medium","marker-symbol":"","title":"McMath Library"},"type":"Feature"},{"geometry":{"coordinates":[-92.3306,34.668795],"type":"Point"},"id":"ci8pd4vly00gbi3m36h5c08wr","properties":{"description":"4716 Baseline Rd, Little Rock, AR","id":"marker-i8pcubqkn","marker-color":"#a3e46b","marker-size":"medium","marker-symbol":"","title":"Affordable Care Center"},"type":"Feature"},{"geometry":{"coordinates":[-92.378773,34.668566],"type":"Point"},"id":"ci8pd4vlz00gci3m367faiycb","properties":{"description":"10101 Mabelvale Plaza Dr., Little Rock, AR","id":"marker-i8pcw1p5o","marker-color":"#a3e46b","marker-size":"medium","marker-symbol":"","title":"Concentra Urgent Care"},"type":"Feature"},{"geometry":{"coordinates":[-92.344881,34.666229],"type":"Point"},"id":"ci8pd4vm000gdi3m36hf5r80z","properties":{"description":"9110 Geyer Springs Rd, Little Rock, AR 72209","id":"marker-i8pcx5rkp","marker-color":"#a3e46b","marker-size":"medium","marker-symbol":"","title":"Professional Counseling Associates"},"type":"Feature"},{"geometry":{"coordinates":[-92.314038,34.67959],"type":"Point"},"id":"ci8pd4vm100gei3m31kj2bm63","properties":{"description":"7123 Interstate 30, Little Rock, AR 72209","id":"marker-i8pd0t68r","marker-color":"#a3e46b","marker-size":"medium","marker-symbol":"","title":"B & B Medical Services"},"type":"Feature"},{"geometry":{"coordinates":[-92.406785,34.71316],"type":"Point"},"id":"ci8pd4vm200gfi3m3hqb6fqzq","properties":{"description":"11900 Colonel Glenn Rd, Little Rock, AR 72210","id":"marker-i8pd2myms","marker-color":"#a3e46b","marker-size":"medium","marker-symbol":"","title":"St Paul Community Wellness Center"},"type":"Feature"},{"geometry":{"coordinates":[-92.335418,34.667794],"type":"Point"},"id":"ci8rhkswa022qjilyrk9h73q8","properties":{"description":"5121 Baseline Rd, Little Rock, AR 72209","id":"marker-i8rg4frc0","marker-color":"#6c6c6c","marker-size":"medium","marker-symbol":"","title":"Evangelist Temple Church-God"},"type":"Feature"},{"geometry":{"coordinates":[-92.319035,34.666579],"type":"Point"},"id":"ci8rhkswb022rjilys0z4bdus","properties":{"description":"9010 Hilaro Springs Rd, Little Rock, AR 72209","id":"marker-i8rg6btt1","marker-color":"#6c6c6c","marker-size":"medium","marker-symbol":"","title":"Harvest Fellowship Worship Center"},"type":"Feature"},{"geometry":{"coordinates":[-92.316256,34.667296],"type":"Point"},"id":"ci8rhkswc022sjilym5qs4sps","properties":{"description":"3405 Baseline Rd. Little Rock, AR 72209","id":"marker-i8rg75982","marker-color":"#6c6c6c","marker-size":"medium","marker-symbol":"","title":"Baseline Christian Church"},"type":"Feature"},{"geometry":{"coordinates":[-92.329639,34.668912],"type":"Point"},"id":"ci8rhkswd022tjily017prlk2","properties":{"description":"4600 Baseline Rd, Little Rock, AR 72209","id":"marker-i8rg86lo3","marker-color":"#6c6c6c","marker-size":"medium","marker-symbol":"","title":"Saint Andrews United Methodist Church"},"type":"Feature"},{"geometry":{"coordinates":[-92.347426,34.668551],"type":"Point"},"id":"ci8rhkswe022ujily2y0mfic4","properties":{"description":"6219 Baseline Rd, Little Rock, AR 72209 ","id":"marker-i8rg99g44","marker-color":"#6c6c6c","marker-size":"medium","marker-symbol":"","title":"Saint Theresa’s Catholic Church"},"type":"Feature"},{"geometry":{"coordinates":[-92.319162,34.726518],"type":"Point"},"id":"ci8rhkswf022vjily6ge3y9m6","properties":{"description":"2701 S Elm St, Little Rock, AR 72204 ","id":"marker-i8rga22n5","marker-color":"#6c6c6c","marker-size":"medium","marker-symbol":"","title":"St Francis House Ministries"},"type":"Feature"},{"geometry":{"coordinates":[-92.333547,34.669831],"type":"Point"},"id":"ci8rhkswg022wjilyby5epo2b","properties":{"description":"8720 Stanton Rd, Little Rock, AR 72209 ","id":"marker-i8rgaz5n6","marker-color":"#6c6c6c","marker-size":"medium","marker-symbol":"","title":"World Harvest Christian Church"},"type":"Feature"},{"geometry":{"coordinates":[-92.316779,34.667511],"type":"Point"},"id":"ci8rhkswh022xjilyejeqqra6","properties":{"description":"3409 Baseline Rd, Little Rock, AR 72209 ","id":"marker-i8rgchsi7","marker-color":"#6c6c6c","marker-size":"medium","marker-symbol":"","title":"We Care Ministries"},"type":"Feature"},{"geometry":{"coordinates":[-92.319248,34.663491],"type":"Point"},"id":"ci8rhkswi022yjilypcpimxrg","properties":{"description":"9400 Hilaro Springs Rd, Little Rock, AR 72209","id":"marker-i8rgdhli8","marker-color":"#6c6c6c","marker-size":"medium","marker-symbol":"","title":"Scope Ministries"},"type":"Feature"},{"geometry":{"coordinates":[-92.358496,34.761451],"type":"Point"},"id":"ci8rhkswj022zjily20oeo4qu","properties":{"description":"1000 North Mississippi Ave, Little Rock, AR 72207","id":"marker-i8rgeem49","marker-color":"#6c6c6c","marker-size":"medium","marker-symbol":"","title":"St. Mark’s Episcopal Church"},"type":"Feature"},{"geometry":{"coordinates":[-92.381465,34.722506],"type":"Point"},"id":"ci8rhkswk0230jily1dqknu6o","properties":{"description":"3301 Romine Rd, Little Rock, AR 72204","id":"marker-i8rgfb1xa","marker-color":"#6c6c6c","marker-size":"medium","marker-symbol":"","title":"Hunter United Methodist Church"},"type":"Feature"},{"geometry":{"coordinates":[-92.389446,34.722395],"type":"Point"},"id":"ci8rhkswl0231jilyfzyqly25","properties":{"description":"10200 W 36th St, Little Rock, AR 72204","id":"marker-i8rgg51tb","marker-color":"#6c6c6c","marker-size":"medium","marker-symbol":"","title":"South Highland Baptist Church"},"type":"Feature"},{"geometry":{"coordinates":[-92.373663,34.722336],"type":"Point"},"id":"ci8rhkswm0232jilyzh3cly5i","properties":{"description":"8815 W 34th St, Little Rock, AR 72204","id":"marker-i8rgh0gfc","marker-color":"#6c6c6c","marker-size":"medium","marker-symbol":"","title":"Mt Sinai Baptist Church"},"type":"Feature"},{"geometry":{"coordinates":[-92.390512,34.720316],"type":"Point"},"id":"ci8rhkswn0233jilywia8r2bu","properties":{"description":"10325 W 36th St, Little Rock, AR 72204","id":"marker-i8rgjqp1d","marker-color":"#6c6c6c","marker-size":"medium","marker-symbol":"","title":"Calvary Church of the Nazarene"},"type":"Feature"},{"geometry":{"coordinates":[-92.373528,34.71802],"type":"Point"},"id":"ci8rhkswo0234jily3v80ajsz","properties":{"description":"3900 John Barrow Rd, Little Rock, AR 72204","id":"marker-i8rgkdmke","marker-color":"#6c6c6c","marker-size":"medium","marker-symbol":"","title":"In His Presence Worship Ministries"},"type":"Feature"},{"geometry":{"coordinates":[-92.404632,34.722917],"type":"Point"},"id":"ci8rhkswq0235jilysuaimnx4","properties":{"description":"11500 W 36th St, Little Rock, AR 72211","id":"marker-i8rgl29sf","marker-color":"#6c6c6c","marker-size":"medium","marker-symbol":"","title":"The Church at Rock Creek"},"type":"Feature"},{"geometry":{"coordinates":[-92.408716,34.76149],"type":"Point"},"id":"ci8rhkswr0236jilyfrkb9i2i","properties":{"description":"701 Napa Valley Dr, Little Rock, AR 72211","id":"marker-i8rgqoqog","marker-color":"#6c6c6c","marker-size":"medium","marker-symbol":"","title":"Agape Church"},"type":"Feature"},{"geometry":{"coordinates":[-92.445354,34.758106],"type":"Point"},"id":"ci8rhksws0237jilyh90db6sf","properties":{"description":"15524 Chenal Parkway, Little Rock, AR 72211","id":"marker-i8rgrb1xh","marker-color":"#6c6c6c","marker-size":"medium","marker-symbol":"","title":"Highland Valley United Methodist Church"},"type":"Feature"},{"geometry":{"coordinates":[-92.343815,34.664424],"type":"Point"},"id":"ci8rhkswt0238jilywc0zmo97","properties":{"description":"9417 Geyer Springs Rd, Little Rock, AR 72209","id":"marker-i8rgwhmii","marker-color":"#000000","marker-size":"medium","marker-symbol":"","title":"McClellan Magnet High School"},"type":"Feature"},{"geometry":{"coordinates":[-92.347565,34.673786],"type":"Point"},"id":"ci8rhkswu0239jilyptae1tuu","properties":{"description":"6300 Hinkson Rd,  Little Rock, AR 72209","id":"marker-i8rh3ginj","marker-color":"#000000","marker-size":"medium","marker-symbol":"","title":"Cloverdale Middle School"},"type":"Feature"},{"geometry":{"coordinates":[-92.289461,34.735269],"type":"Point"},"id":"ci8rhkswv023ajilyzi8flnm7","properties":{"description":"1621 Dr Martin Luther King Dr, Little Rock, AR 72206  ","id":"marker-i8rh6evok","marker-color":"#000000","marker-size":"medium","marker-symbol":"college","title":"Arkansas Baptist College"},"type":"Feature"},{"geometry":{"coordinates":[-92.339745,34.723175],"type":"Point"},"id":"ci8rhksww023bjily0engvbm0","properties":{"description":"2801 S University Ave, Little Rock, AR 72204","id":"marker-i8rhaq83l","marker-color":"#000000","marker-size":"medium","marker-symbol":"college","title":"University of Arkansas at Little Rock "},"type":"Feature"},{"geometry":{"coordinates":[-92.344477,34.675272],"type":"Point"},"id":"ci8rhkswx023cjily0t626lp6","properties":{"description":"8200 Geyer Springs Rd, Little Rock, AR 72209","id":"marker-i8rhd2mzm","marker-color":"#eaf7ca","marker-size":"medium","marker-symbol":"","title":"Bank of America"},"type":"Feature"},{"geometry":{"coordinates":[-92.339333,34.678958],"type":"Point"},"id":"ci8rhkswy023djilycqd0dp0g","properties":{"description":"8401 Interstate 30, Little Rock, AR 72209","id":"marker-i8rhepkyn","marker-color":"#eaf7ca","marker-size":"medium","marker-symbol":"","title":"United Arkansas Federal Credit Union"},"type":"Feature"},{"geometry":{"coordinates":[-92.34576,34.669211],"type":"Point"},"id":"ci8rhkswz023ejilydb2dlhvy","properties":{"description":"6101 Baseline, Little Rock, AR 72209","id":"marker-i8rhi3uso","marker-color":"#eaf7ca","marker-size":"medium","marker-symbol":"","title":"Regions Bank"},"type":"Feature"},{"geometry":{"coordinates":[-92.397947,34.728657],"type":"Point"},"id":"ci8rhksx0023fjilyoe27tgdy","properties":{"description":"2700 S Shackleford Rd, Little Rock, AR 72205","id":"marker-i8rhjowgp","marker-color":"#eaf7ca","marker-size":"medium","marker-symbol":"","title":"Arvest Bank"},"type":"Feature"},{"geometry":{"coordinates":[-92.399069,34.713003],"type":"Point"},"id":"ci8rhksx1023gjily1kis77vs","properties":{"description":"10900 Colonel Glenn Rd, Little Rock, AR 72204","id":"marker-i8rhkftaq","marker-color":"#eaf7ca","marker-size":"medium","marker-symbol":"","title":"Iberiabank"},"type":"Feature"},{"geometry":{"coordinates":[-92.393978,34.742033],"type":"Point"},"id":"ci8rhqof801dqj0kp4vxaaaf8","properties":{"description":"1221 South Shackleford Road","id":"marker-i8rhn80v0","marker-color":"#eaf7ca","marker-size":"medium","marker-symbol":"","title":"Arkansas Federal Credit Union"},"type":"Feature"},{"geometry":{"coordinates":[-92.344477,34.675272],"type":"Point"},"id":"ci8rhqofa01drj0kp0oxcp83f","properties":{"description":"8200 Geyer Springs Rd, Little Rock, AR 72209","id":"marker-i8rhpg111","marker-color":"#eaf7ca","marker-size":"medium","marker-symbol":"","title":"Bank of America"},"type":"Feature"},{"geometry":{"coordinates":[-92.352702,34.669901],"type":"Point"},"id":"ci8rhqofb01dsj0kp0yzaj134","properties":{"description":"6712 Baseline Rd, Little Rock, AR 72209","id":"marker-i8rhqdk12","marker-color":"#eaf7ca","marker-size":"medium","marker-symbol":"","title":"Metropolitan National Bank"},"type":"Feature"}],"id":"jeremystark.lom1mek4","ids":["ci8m6ke2m001nhwm5pr80ajt6","ci8m6ke2o001ohwm5txec103i","ci8m6ke2p001phwm5t19o56kk","ci8m7pj60000pk4m4i864ml6x","ci8m7pj61000qk4m4vlvdj4fe","ci8m7pj62000rk4m4vr0xsf5k","ci8m8bwm4001vjxm4cu0ktmgt","ci8m8bwm5001wjxm4wgeavpak","ci8m8bwm7001xjxm4abbcpcqb","ci8m8bwm8001yjxm44xs520op","ci8m8bwma001zjxm4t5gc9g8t","ci8m8bwmb0020jxm4ydwzpxrn","ci8pd4vla00fpi3m33phublbh","ci8pd4vlb00fqi3m315339ykq","ci8pd4vlc00fri3m3f0j0i1p0","ci8pd4vld00fsi3m3wrkz4822","ci8pd4vle00fti3m3vixb7t1f","ci8pd4vlf00fui3m34e3pz7ya","ci8pd4vlg00fvi3m3cr0uysyu","ci8pd4vlh00fwi3m3pzlb3821","ci8pd4vlj00fxi3m39pud8lau","ci8pd4vlk00fyi3m3e4lamrrp","ci8pd4vll00fzi3m3zwtfmnwr","ci8pd4vlm00g0i3m3065krvpa","ci8pd4vln00g1i3m3te97qy4n","ci8pd4vlo00g2i3m380kv8ye2","ci8pd4vlp00g3i3m3r1x7p3dm","ci8pd4vlq00g4i3m38rtv2wya","ci8pd4vlr00g5i3m3psiwsgdd","ci8pd4vls00g6i3m36d5rgpy1","ci8pd4vlt00g7i3m32ydsn6x4","ci8pd4vlv00g8i3m3f4u5rd08","ci8pd4vlw00g9i3m3ec8atlh4","ci8pd4vlx00gai3m3hfe7tv1x","ci8pd4vly00gbi3m36h5c08wr","ci8pd4vlz00gci3m367faiycb","ci8pd4vm000gdi3m36hf5r80z","ci8pd4vm100gei3m31kj2bm63","ci8pd4vm200gfi3m3hqb6fqzq","ci8rhkswa022qjilyrk9h73q8","ci8rhkswb022rjilys0z4bdus","ci8rhkswc022sjilym5qs4sps","ci8rhkswd022tjily017prlk2","ci8rhkswe022ujily2y0mfic4","ci8rhkswf022vjily6ge3y9m6","ci8rhkswg022wjilyby5epo2b","ci8rhkswh022xjilyejeqqra6","ci8rhkswi022yjilypcpimxrg","ci8rhkswj022zjily20oeo4qu","ci8rhkswk0230jily1dqknu6o","ci8rhkswl0231jilyfzyqly25","ci8rhkswm0232jilyzh3cly5i","ci8rhkswn0233jilywia8r2bu","ci8rhkswo0234jily3v80ajsz","ci8rhkswq0235jilysuaimnx4","ci8rhkswr0236jilyfrkb9i2i","ci8rhksws0237jilyh90db6sf","ci8rhkswt0238jilywc0zmo97","ci8rhkswu0239jilyptae1tuu","ci8rhkswv023ajilyzi8flnm7","ci8rhksww023bjily0engvbm0","ci8rhkswx023cjily0t626lp6","ci8rhkswy023djilycqd0dp0g","ci8rhkswz023ejilydb2dlhvy","ci8rhksx0023fjilyoe27tgdy","ci8rhksx1023gjily1kis77vs","ci8rhqof801dqj0kp4vxaaaf8","ci8rhqofa01drj0kp0oxcp83f","ci8rhqofb01dsj0kp0yzaj134"],"type":"FeatureCollection"}